団体コード,団体名,種別,名称,概要,通称,住所_表記,施設_緯度,施設_経度,施設_電話番号,ホームページ,開始時間,終了時間,日時備考,自由記述欄
112321,久喜市,庁舎等,久喜市役所（本庁舎）,,,埼玉県久喜市下早見85-3,36.05892778,139.6701363,0480-22-1111,,,,,
112321,久喜市,庁舎等,久喜市役所（第二庁舎）,,,埼玉県久喜市北青柳1404-7,36.04946172,139.6624852,0480-22-1111,,,,,
112321,久喜市,庁舎等,菖蒲総合支所,,,埼玉県久喜市菖蒲町新堀38,36.05607739,139.6047556,0480-85-1111,,,,,
112321,久喜市,庁舎等,栗橋総合支所,,,埼玉県久喜市間鎌251-1,36.12299261,139.6992888,0480-53-1111,,,,,
112321,久喜市,庁舎等,鷲宮総合支所,,,埼玉県久喜市鷲宮6-1-1,36.09717172,139.6704164,0480-58-1111,,,,,
112321,久喜市,庁舎等,公文書館,,,埼玉県久喜市下早見85-1,36.05960919,139.6700732,0480-23-5010,,,,,
112321,久喜市,清掃センター,久喜宮代清掃センター,,,埼玉県南埼玉郡宮代町大字和戸1276-1,36.047683,139.687724,0480-34-2042,,,,,
112321,久喜市,清掃センター,菖蒲清掃センター,,,埼玉県久喜市菖蒲町台2770-1,36.06169733,139.6399618,0480-85-7027,,,,,
112321,久喜市,清掃センター,八甫清掃センター,,,埼玉県久喜市八甫2525,36.09469114,139.7024128,0480-58-1309,,,,,
112321,久喜市,清掃センター,クリーンセンターあさひ,,,埼玉県北本市朝日1-200,36.04362,139.55414,048-591-5490,,,,,
112321,久喜市,警察・消防・救急,久喜警察署,,,埼玉県久喜市上早見154,36.06445153,139.6635696,0480-24-0110,,,,,
112321,久喜市,警察・消防・救急,久喜駅東口交番　　,,,埼玉県久喜市久喜東1-1-4,36.06323361,139.6817913,0480-21-0749,,,,,
112321,久喜市,警察・消防・救急,久喜駅西口交番,,,埼玉県久喜市久喜中央1-1-16,36.06303564,139.680558,0480-22-1215,,,,,
112321,久喜市,警察・消防・救急,菖蒲交番,,,埼玉県久喜市菖蒲町新堀550-5,36.06245903,139.6036514,0480-85-1204,,,,,
112321,久喜市,警察・消防・救急,東鷲宮駅前交番,,,埼玉県久喜市桜田3-1-2,36.08555686,139.6837556,0480-58-1007,,,,,
112321,久喜市,警察・消防・救急,小林駐在所,,,埼玉県久喜市菖蒲町小林2264-8,36.05307622,139.5878711,0480-85-1209,,,,,
112321,久喜市,警察・消防・救急,幸手警察署,,,埼玉県幸手市大字上吉羽964,36.082317,139.736503,0480-42-0110,,,,,
112321,久喜市,警察・消防・救急,栗橋交番,,,埼玉県久喜市栗橋中央2-6-1,36.13661214,139.7039093,0480-52-0049,,,,,
112321,久喜市,警察・消防・救急,南栗橋交番,,,埼玉県久喜市南栗橋4-15-5,36.10963372,139.7144517,0480-52-9801,,,,,
112321,久喜市,警察・消防・救急,埼玉東部消防組合消防局,,,埼玉県久喜市上早見396,36.06547878,139.6625984,0480-21-0119,,,,,
112321,久喜市,警察・消防・救急,久喜消防署,,,埼玉県久喜市上早見396,36.06547878,139.6625984,0480-21-0190,,,,,
112321,久喜市,警察・消防・救急,久喜消防署東分署,,,埼玉県久喜市吉羽2-30-2,36.06627642,139.6929884,0480-22-1217,,,,,
112321,久喜市,警察・消防・救急,久喜消防署菖蒲分署,,,埼玉県久喜市菖蒲町新堀964-1,36.05920478,139.5989125,0480-85-1009,,,,,
112321,久喜市,警察・消防・救急,久喜消防署栗橋分署,,,埼玉県久喜市栗橋324-2,36.12334856,139.7079803,0480-52-2119,,,,,
112321,久喜市,警察・消防・救急,久喜消防署鷲宮分署,,,埼玉県久喜市西大輪2111-6,36.08983819,139.6741769,0480-58-1001,,,,,
112321,久喜市,斎場,メモリアルトネ（広域利根斎場組合）,,,埼玉県加須市川口4ｰ3-5,36.108584,139.657804,0480-65-8234,,,,,
112321,久喜市,国・県の機関（学校・図書館除く）,さいたま地方法務局久喜支局,,,埼玉県久喜市本町4-5-28,36.06529739,139.6647365,0480-21-0215,,,,,
112321,久喜市,国・県の機関（学校・図書館除く）,久喜簡易裁判所,,,埼玉県久喜市久喜東1-15-3,36.05904964,139.6826428,0480-21-0157,,,,,
112321,久喜市,国・県の機関（学校・図書館除く）,さいたま家庭裁判所久喜出張所,,,埼玉県久喜市久喜東1-15-3,36.05904964,139.6826428,0480-21-0157,,,,,
112321,久喜市,国・県の機関（学校・図書館除く）,県農業技術研究センター（久喜試験場）,,,埼玉県久喜市六万部91,36.08461192,139.6395824,0480-21-1113,,,,,
112321,久喜市,国・県の機関（学校・図書館除く）,久喜市ふるさとハローワーク,,,埼玉県久喜市下早見85-3（久喜市役所　本庁舎内）,36.05892778,139.6701363,0480-29-2768,,,,,
112321,久喜市,国・県の機関（学校・図書館除く）,国土交通省利根川上流河川事務所,,,埼玉県久喜市栗橋北2-19-1,36.14018764,139.7022763,0480-52-3952,,,,,
112321,久喜市,国・県の機関（学校・図書館除く）,古利根川水循環センター,,,埼玉県久喜市吉羽772-1,36.05517644,139.6924891,0480-22-3819,,,,,
112321,久喜市,保健・医療,中央保健センター,,,埼玉県久喜市本町5ｰ10-47,36.06785553,139.6685335,0480-21-5354,,,,,
112321,久喜市,保健・医療,菖蒲保健センター,,,埼玉県久喜市菖蒲町新堀1,36.05576806,139.6051461,0480-85-7021,,,,,
112321,久喜市,保健・医療,栗橋保健センター,,,埼玉県久喜市間鎌251-1,36.12299261,139.6992888,0480-52-5577,,,,,
112321,久喜市,保健・医療,鷲宮保健センター,,,埼玉県久喜市鷲宮6-1-2,36.09791039,139.6704556,0480-58-8521,,,,,
112321,久喜市,保健・医療,久喜市休日夜間急患診療所,,,埼玉県久喜市本町5-10-47（中央保健センター併設）,36.06785553,139.6685335,0480-21-9090,,,,,
112321,久喜市,福祉,高齢者福祉センター「いきいき温泉久喜」,,,埼玉県久喜市江面1574-1,36.05479278,139.6666726,0480-22-7933,,,,,
112321,久喜市,福祉,偕楽荘,,,埼玉県久喜市上清久930,36.07630461,139.6522155,0480-21-0307,,,,,
112321,久喜市,福祉,菖蒲老人福祉センター,,,埼玉県久喜市菖蒲町三箇2904,36.06052669,139.6292152,0480-85-1205,,,,,
112321,久喜市,福祉,彩嘉園,,,埼玉県久喜市菖蒲町三箇1235-1,36.05863047,139.6200622,0480-85-7315,,,,,
112321,久喜市,福祉,鷲宮福祉センター,,,埼玉県久喜市鷲宮6-1-5,36.09791208,139.6723332,0480-58-6666,,,,,
112321,久喜市,福祉,ふれあいセンター久喜,,,埼玉県久喜市青毛753-1,36.06908547,139.696614,0480-25-1010,,,,,
112321,久喜市,福祉,いちょうの木,,,埼玉県久喜市所久喜835-1,36.07153642,139.639627,0480-23-4711,,,,,
112321,久喜市,福祉,けやきの木,,,埼玉県久喜市青毛1146-1,36.07119111,139.6958501,0480-21-7555,,,,,
112321,久喜市,福祉,のぞみ園,,,埼玉県久喜市北青柳1331,36.04785067,139.6663926,0480-22-2381,,,,,
112321,久喜市,福祉,健康福祉センター（くりむ）,,,埼玉県久喜市間鎌255-1,36.12228547,139.6993405,0480-52-8787,,,,,
112321,久喜市,福祉,くりの木,,,埼玉県久喜市間鎌276-2,36.12116111,139.7009429,0480-55-2341,,,,,
112321,久喜市,福祉,あゆみの郷,,,埼玉県久喜市東大輪2273-1,36.09754781,139.6733258,0480-58-8956,,,,,
112321,久喜市,福祉,ゆう・あい,,,埼玉県久喜市上内327-6,36.08102,139.671091,0480-57-4353,,,,,
112321,久喜市,福祉,児童センター,,,埼玉県久喜市吉羽1-40-14,36.06232306,139.6925674,0480-21-8181,,,,,
112321,久喜市,福祉,しょうぶ会館,,,埼玉県久喜市菖蒲町菖蒲1077-1,36.06659119,139.6001948,0480-85-0370,,,,,
112321,久喜市,福祉,鷲宮児童館,,,埼玉県久喜市上内878,36.08541167,139.6630795,0480-58-7054,,,,,
112321,久喜市,福祉,久喜市ファミリー･サポート･センター,,,埼玉県久喜市青毛753-1（ふれあいセンター久喜内）,36.06908547,139.696614,0480-29-1900,,,,,
112321,久喜市,福祉,久喜市ファミリー･サポート･センター菖蒲,,,埼玉県久喜市菖蒲町新堀38（菖蒲総合支所内）,36.05607739,139.6047556,0480-85-2015,,,,,
112321,久喜市,福祉,久喜市ファミリー･サポート･センター栗橋,,,埼玉県久喜市中里1048-1（栗橋地域子育て支援センター内）,36.10238169,139.7175141,0480-55-1148,,,,,
112321,久喜市,福祉,久喜市ファミリー･サポート･センター鷲宮,,,埼玉県久喜市鷲宮2-6-19（鷲宮地域子育て支援センター併設）,36.09537706,139.6644089,0480-59-6600,,,,,
112321,久喜市,福祉,久喜地域子育て支援センター　（ぽかぽか）,,,埼玉県久喜市吉羽692-1（ひまわり保育園内）,36.05581367,139.6890936,0480-21-8596,,,,,
112321,久喜市,福祉,栗橋地域子育て支援センター　（くぷる）,,,埼玉県久喜市中里1048-1（栗橋コミュニティセンター内）,36.10238169,139.7175141,0480-55-1147,,,,,
112321,久喜市,福祉,鷲宮地域子育て支援センター　（すまいる）,,,埼玉県久喜市鷲宮2-6-19（久喜市ファミリー・サポート・センター鷲宮併設）,36.09537706,139.6644089,0480-59-7510,,,,,
112321,久喜市,福祉,久喜市つどいの広場　（きらきら）,,,埼玉県久喜市本町2-5-1（久喜小学校放課後児童クラブ施設）,36.06464053,139.6727861,0480-21-8324,,,,,
112321,久喜市,福祉,子育て支援センター　（ほほえみ）,,,埼玉県久喜市吉羽2170-2,36.06010614,139.700587,0480-31-6057,,,,,
112321,久喜市,福祉,子育て支援センター　（リトルエンゼル）,,,埼玉県久喜市青葉3-7,36.06766211,139.7006887,0480-22-3327,,,,,
112321,久喜市,福祉,子育て支援センター　（あけぼのランド）,,,埼玉県久喜市久喜東1-16-12,36.05961281,139.6831971,0480-21-1011,,,,,
112321,久喜市,福祉,子育て支援センター　（ヤマボウシ）,,,埼玉県久喜市本町1-2-60,36.06961294,139.6718498,0480-25-5750,,,,,
112321,久喜市,福祉,子育て支援センター　（いちご広場）,,,埼玉県久喜市菖蒲町小林2848-1,36.05868878,139.5791435,0480-85-5834,,,,,
112321,久喜市,福祉,子育て支援センター　（ぽぴーるーむ）,,,埼玉県久喜市菖蒲町菖蒲410-4,36.06690239,139.6077652,080-7699-1979,,,,,
112321,久喜市,福祉,子育て支援センター　（ばんびるーむ）,,,埼玉県久喜市佐間1145,36.11844636,139.6977881,0480-52-5988,,,,,
112321,久喜市,福祉,子育て支援センター　（森のひろば）,,,埼玉県久喜市伊坂135,36.13098236,139.6918556,0480-52-4344,,,,,
112321,久喜市,福祉,子育て支援センター　（くりぽん）,,,埼玉県久喜市小右衛門1295-1,36.11482614,139.7135708,0480-52-0074,,,,,
112321,久喜市,福祉,子育て支援センター　（わしの子）,,,埼玉県久喜市上内1446-1,36.08736139,139.6635449,0480-58-1510,,,,,
112321,久喜市,福祉,子育て支援センター　（カシオペア）,,,埼玉県久喜市西大輪272-3,36.09285964,139.6809083,0480-59-6793,,,,,
112321,久喜市,福祉,子育て支援センター　（ままとも）,,,埼玉県久喜市桜田1-4-3,36.09127264,139.6799898,0480-59-1122,,,,,
112321,久喜市,保育所・認定こども園・地域型保育施設（公立・私立）,さくら保育園,,,埼玉県久喜市所久喜1130,36.07038719,139.640313,0480-21-0787,,,,,
112321,久喜市,保育所・認定こども園・地域型保育施設（公立・私立）,すみれ保育園,,,埼玉県久喜市北青柳1331,36.04785067,139.6663926,0480-21-0120,,,,,
112321,久喜市,保育所・認定こども園・地域型保育施設（公立・私立）,ひまわり保育園,,,埼玉県久喜市吉羽692-1,36.05581367,139.6890936,0480-22-8246,,,,,
112321,久喜市,保育所・認定こども園・地域型保育施設（公立・私立）,あおば保育園,,,埼玉県久喜市青葉2-9-4,36.06807025,139.696904,0480-22-2566,,,,,
112321,久喜市,保育所・認定こども園・地域型保育施設（公立・私立）,中央保育園,,,埼玉県久喜市久喜中央1-9-1-100,36.06601058,139.6799575,0480-23-6030,,,,,
112321,久喜市,保育所・認定こども園・地域型保育施設（公立・私立）,中央保育園分園,,,埼玉県久喜市下早見85-15（中央幼稚園内）,36.05867256,139.671157,0480-21-7870,,,,,
112321,久喜市,保育所・認定こども園・地域型保育施設（公立・私立）,はるみ保育園,,,埼玉県久喜市上早見180-1,36.06653989,139.6584008,0480-21-0275,,,,,
112321,久喜市,保育所・認定こども園・地域型保育施設（公立・私立）,たから保育園,,,埼玉県久喜市吉羽2170-2,36.06010614,139.700587,0480-23-2233,,,,,
112321,久喜市,保育所・認定こども園・地域型保育施設（公立・私立）,おひさま保育園,,,埼玉県久喜市古久喜689-1,36.07491883,139.6782338,0480-31-8445,,,,,
112321,久喜市,保育所・認定こども園・地域型保育施設（公立・私立）,久喜きららの杜保育園,,,埼玉県久喜市栗原3-17-1,36.07170078,139.7059501,0480-37-7882,,,,,
112321,久喜市,保育所・認定こども園・地域型保育施設（公立・私立）,あやめ保育園,,,埼玉県久喜市菖蒲町三箇181-1,36.05708217,139.6110389,0480-85-1505,,,,,
112321,久喜市,保育所・認定こども園・地域型保育施設（公立・私立）,おばやし保育園,,,埼玉県久喜市菖蒲町小林2848-1,36.05868878,139.5791435,0480-31-9880,,,,,
112321,久喜市,保育所・認定こども園・地域型保育施設（公立・私立）,栗橋保育園,,,埼玉県久喜市小右衛門1295-1,36.11482614,139.7135708,0480-52-0074,,,,,
112321,久喜市,保育所・認定こども園・地域型保育施設（公立・私立）,栗橋保育園分園,,,埼玉県久喜市栗橋中央2-14-16,36.13509269,139.7061948,0480-52-0074（代表）,,,,,
112321,久喜市,保育所・認定こども園・地域型保育施設（公立・私立）,おおしか保育園,,,埼玉県久喜市佐間1145,36.11844636,139.6977881,0480-52-5988,,,,,
112321,久喜市,保育所・認定こども園・地域型保育施設（公立・私立）,なずなの森保育園,,,埼玉県久喜市栗橋東2-16-13-2,36.12936461,139.7012873,0480-52-5047,,,,,
112321,久喜市,保育所・認定こども園・地域型保育施設（公立・私立）,南栗橋保育園,,,埼玉県久喜市南栗橋8-1-3,36.11095347,139.7065336,0480-48-7100,,,,,
112321,久喜市,保育所・認定こども園・地域型保育施設（公立・私立）,鷲宮保育園,,,埼玉県久喜市上内1446-1,36.08736139,139.6635449,0480-58-1510,,,,,
112321,久喜市,保育所・認定こども園・地域型保育施設（公立・私立）,鷲宮第二保育園,,,埼玉県久喜市上内1905-1,36.08372217,139.659121,0480-59-0095,,,,,
112321,久喜市,保育所・認定こども園・地域型保育施設（公立・私立）,鷲宮第二保育園分園,,,埼玉県久喜市鷲宮2-13-14,36.09773175,139.6637859,0480-59-0095（代表）,,,,,
112321,久喜市,保育所・認定こども園・地域型保育施設（公立・私立）,鷲宮桜が丘保育園,,,埼玉県久喜市久本寺548-2,36.0771185,139.6589757,0480-58-3003,,,,,
112321,久喜市,保育所・認定こども園・地域型保育施設（公立・私立）,JR東鷲宮駅前東鷲宮保育園,,,埼玉県久喜市久喜市桜田1-4-3,36.0880985,139.6832329,0480-59-1122,,,,,
112321,久喜市,保育所・認定こども園・地域型保育施設（公立・私立）,幼保連携型認定こども園　久喜みなみこども園,,,埼玉県久喜市下早見481-2,36.05500678,139.6743354,0480-23-2828,,,,,
112321,久喜市,保育所・認定こども園・地域型保育施設（公立・私立）,そらにとどくき認定こども園　ののの,,,埼玉県久喜市本町1-2-60,36.06660619,139.675522,0480-25-5750,,,,,
112321,久喜市,保育所・認定こども園・地域型保育施設（公立・私立）,幼保連携型認定こども園　あけぼの幼稚園（保育部・教育部）,,,埼玉県久喜市青葉3-7,36.06766211,139.7006887,0480-22-3327（代表）,,,,,
112321,久喜市,保育所・認定こども園・地域型保育施設（公立・私立）,幼保連携型認定こども園　あけぼの東幼稚園（保育部・教育部）,,,埼玉県久喜市久喜東1-16-12,36.05961281,139.6831971,0480-21-1011（代表）,,,,,
112321,久喜市,保育所・認定こども園・地域型保育施設（公立・私立）,幼稚園型認定こども園　久喜あおば幼稚園,,,埼玉県久喜市青毛4-11-5,36.07659642,139.7054811,0480-23-1660,,,,,
112321,久喜市,保育所・認定こども園・地域型保育施設（公立・私立）,幼保連携型認定こども園　菖蒲幼稚園,,,埼玉県久喜市菖蒲町菖蒲410-4,36.06372744,139.6110012,0480-85-4151,,,,,
112321,久喜市,保育所・認定こども園・地域型保育施設（公立・私立）,幼稚園型認定こども園　長龍寺幼稚園,,,埼玉県久喜市菖蒲町三箇992,36.05706633,139.6185053,0480-85-1002,,,,,
112321,久喜市,保育所・認定こども園・地域型保育施設（公立・私立）,幼保連携型認定こども園こどもむら　さくらのもり,,,埼玉県久喜市伊坂135,36.13098236,139.6918556,0480-52-0004,,,,,
112321,久喜市,保育所・認定こども園・地域型保育施設（公立・私立）,幼稚園型認定こども園こどもむら　栗橋さくら幼稚園,,,埼玉県久喜市伊坂46,36.13032353,139.6909939,0480-52-5871,,,,,
112321,久喜市,保育所・認定こども園・地域型保育施設（公立・私立）,幼保連携型認定こども園　さくらだこども園（保育部）,,,埼玉県久喜市西大輪1-12-6,36.09172022,139.6805162,0480-58-9895,,,,,
112321,久喜市,保育所・認定こども園・地域型保育施設（公立・私立）,幼保連携型認定こども園　さくらだこども園（教育部）,,,埼玉県久喜市西大輪1-17-2,36.09138394,139.6804603,0480-58-1003,,,,,
112321,久喜市,保育所・認定こども園・地域型保育施設（公立・私立）,幼稚園型認定こども園　鷲宮幼稚園,,,埼玉県久喜市鷲宮3-6-2,36.09846403,139.6643634,0480-58-0075,,,,,
112321,久喜市,保育所・認定こども園・地域型保育施設（公立・私立）,たんぽぽ保育園,,,埼玉県久喜市久喜中央1-1-20クッキープラザ５階,36.06335617,139.6803186,0480-21-8825,,,,,
112321,久喜市,保育所・認定こども園・地域型保育施設（公立・私立）,ゆり保育園,,,埼玉県久喜市青毛2-4-15,36.07082206,139.7040228,0480-23-5098,,,,,
112321,久喜市,保育所・認定こども園・地域型保育施設（公立・私立）,パンダ保育園,,,埼玉県久喜市本町3-1-18,36.06283844,139.6732726,0480-31-9845,,,,,
112321,久喜市,保育所・認定こども園・地域型保育施設（公立・私立）,ひだまり保育園,,,埼玉県久喜市古久喜211-1,36.07205778,139.6818178,0480-31-8445,,,,,
112321,久喜市,保育所・認定こども園・地域型保育施設（公立・私立）,らぁむ保育園久喜園,,,埼玉県久喜市久喜東2-21-12,36.06204811,139.6862118,0480-48-5514,,,,,
112321,久喜市,保育所・認定こども園・地域型保育施設（公立・私立）,きりん保育園,,,埼玉県久喜市久喜北1-1-25,36.07113814,139.6775109,0480-37-7897,,,,,
112321,久喜市,保育所・認定こども園・地域型保育施設（公立・私立）,すずらん保育園,,,埼玉県久喜市本町5-5-15,36.06923955,139.6645192,0480-37-8200,,,,,
112321,久喜市,保育所・認定こども園・地域型保育施設（公立・私立）,きららの杜久喜小規模保育園,,,埼玉県久喜市栗原1-5-4,36.07060311,139.7055696,0480-37-8144,,,,,
112321,久喜市,保育所・認定こども園・地域型保育施設（公立・私立）,こじか保育園,,,埼玉県久喜市高柳2289-1,36.11568286,139.6810684,0480-44-8880,,,,,
112321,久喜市,保育所・認定こども園・地域型保育施設（公立・私立）,こどもむら駅前保育園　さくらのはな,,,埼玉県久喜市伊坂29-6（41街区5）,36.13597889,139.6943897,0480-53-7046,,,,,
112321,久喜市,保育所・認定こども園・地域型保育施設（公立・私立）,こどもむら駅前保育園　さくらいろ,,,埼玉県久喜市伊坂373,36.13597889,139.6943897,0480-52-5871,,,,,
112321,久喜市,保育所・認定こども園・地域型保育施設（公立・私立）,しおどめ保育園久喜,,,埼玉県久喜市葛梅1-13-9,36.09321797,139.6528683,0480-57-1222,,,,,
112321,久喜市,幼稚園（公立・私立）,中央幼稚園,,,埼玉県久喜市下早見85-15,36.05867256,139.671157,0480-22-8547,,,,,
112321,久喜市,幼稚園（公立・私立）,栗橋幼稚園,,,埼玉県久喜市中里1044-1,36.10271853,139.7171256,0480-52-3346,,,,,
112322,久喜市,幼稚園（公立・私立）,栗橋白百合幼稚園,,,埼玉県久喜市栗橋東2-13-1,36.13326458,139.6986,0480-52-0179,,,,,
112321,久喜市,小中学校・給食センター,久喜小学校,,,埼玉県久喜市本町2ｰ5-1,36.06464053,139.6727861,0480-21-0054,,,,,
112321,久喜市,小中学校・給食センター,太田小学校,,,埼玉県久喜市吉羽2ｰ16-10,36.06624875,139.69074,0480-21-0572,,,,,
112321,久喜市,小中学校・給食センター,清久小学校,,,埼玉県久喜市六万部590,36.07405436,139.6414108,0480-21-0789,,,,,
112321,久喜市,小中学校・給食センター,本町小学校,,,埼玉県久喜市本町7-6-1,36.07231994,139.671837,0480-22-8245,,,,,
112321,久喜市,小中学校・給食センター,青葉小学校,,,埼玉県久喜市青葉1-3-1,36.06400819,139.6984977,0480-22-6121,,,,,
112321,久喜市,小中学校・給食センター,青毛小学校,,,埼玉県久喜市青毛800,36.07014933,139.6984752,0480-22-2125,,,,,
112321,久喜市,小中学校・給食センター,久喜東小学校,,,埼玉県久喜市久喜東4-25-20,36.04998111,139.6873042,0480-22-1218,,,,,
112321,久喜市,小中学校・給食センター,久喜北小学校,,,埼玉県久喜市久喜北2-30-1,36.07483467,139.67569,0480-25-0678,,,,,
112321,久喜市,小中学校・給食センター,江面小学校,,,埼玉県久喜市北青柳40-1,36.05300125,139.6701499,0480-21-0571,,,,,
112321,久喜市,小中学校・給食センター,菖蒲小学校,,,埼玉県久喜市菖蒲町菖蒲625,36.06644897,139.6044784,0480-85-1202,,,,,
112321,久喜市,小中学校・給食センター,小林小学校,,,埼玉県久喜市菖蒲町小林2197,36.05147033,139.5867424,0480-85-1306,,,,,
112321,久喜市,小中学校・給食センター,三箇小学校,,,埼玉県久喜市菖蒲町台852-1,36.052326,139.6252382,0480-85-1309,,,,,
112321,久喜市,小中学校・給食センター,栢間小学校,,,埼玉県久喜市菖蒲町下栢間2720,36.03286422,139.5822652,0480-85-1024,,,,,
112321,久喜市,小中学校・給食センター,菖蒲東小学校,,,埼玉県久喜市菖蒲町菖蒲427,36.06303461,139.6114648,0480-85-1303,,,,,
112321,久喜市,小中学校・給食センター,栗橋西小学校,,,埼玉県久喜市佐間266-1,36.11510981,139.6848953,0480-52-0215,,,,,
112321,久喜市,小中学校・給食センター,栗橋南小学校,,,埼玉県久喜市南栗橋4-21-1,36.11057011,139.7127924,0480-52-0235,,,,,
112321,久喜市,小中学校・給食センター,栗橋小学校,,,埼玉県久喜市栗橋東3-3-1,36.13166139,139.7045987,0480-52-2114,,,,,
112321,久喜市,小中学校・給食センター,鷲宮小学校,,,埼玉県久喜市葛梅113,36.090688,139.6610927,0480-58-1006,,,,,
112321,久喜市,小中学校・給食センター,桜田小学校,,,埼玉県久喜市東大輪311,36.0876785,139.6911809,0480-58-1306,,,,,
112321,久喜市,小中学校・給食センター,上内小学校,,,埼玉県久喜市上内716,36.08582964,139.6659001,0480-58-1611,,,,,
112321,久喜市,小中学校・給食センター,砂原小学校,,,埼玉県久喜市砂原1-4-1,36.09284017,139.6651418,0480-58-1614,,,,,
112321,久喜市,小中学校・給食センター,東鷲宮小学校,,,埼玉県久喜市桜田3-10-1,36.08918281,139.6872155,0480-59-3122,,,,,
112321,久喜市,小中学校・給食センター,久喜中学校,,,埼玉県久喜市本町4-1-1,36.06528608,139.6682007,0480-21-0162,,,,,
112321,久喜市,小中学校・給食センター,久喜南中学校,,,埼玉県久喜市江面85,36.06261425,139.6654937,0480-21-0544,,,,,
112321,久喜市,小中学校・給食センター,久喜東中学校,,,埼玉県久喜市青葉3-4-1,36.06868772,139.7005158,0480-22-1213,,,,,
112321,久喜市,小中学校・給食センター,太東中学校,,,埼玉県久喜市吉羽2410,36.05808781,139.7047915,0480-21-2410,,,,,
112321,久喜市,小中学校・給食センター,菖蒲中学校,,,埼玉県久喜市菖蒲町上大崎860,36.05383814,139.6073699,0480-85-1201,,,,,
112321,久喜市,小中学校・給食センター,菖蒲南中学校,,,埼玉県久喜市菖蒲町小林110,36.04236653,139.5860167,0480-85-1841,,,,,
112321,久喜市,小中学校・給食センター,栗橋東中学校,,,埼玉県久喜市栗橋1425,36.12457458,139.7056365,0480-52-0436,,,,,
112321,久喜市,小中学校・給食センター,栗橋西中学校,,,埼玉県久喜市間鎌330-1,36.11935292,139.6990884,0480-52-0206,,,,,
112321,久喜市,小中学校・給食センター,鷲宮中学校,,,埼玉県久喜市鷲宮782,36.09249136,139.6711623,0480-58-1004,,,,,
112321,久喜市,小中学校・給食センター,鷲宮東中学校,,,埼玉県久喜市八甫4-46,36.09827914,139.6931123,0480-58-2023,,,,,
112321,久喜市,小中学校・給食センター,鷲宮西中学校,,,埼玉県久喜市上内1797,36.08720925,139.6601634,0480-58-9645,,,,,
112321,久喜市,小中学校・給食センター,学校給食センター,,,埼玉県久喜市下清久500-8,36.07635775,139.653377,0480-22-8989,,,,,
112321,久喜市,高等学校・特別支援学校など,県立久喜高等学校,,,埼玉県久喜市本町3-12-1,36.06328372,139.6711221,0480-21-0038,,,,,
112321,久喜市,高等学校・特別支援学校など,県立久喜工業高等学校,,,埼玉県久喜市野久喜474,36.06838228,139.6888966,0480-21-0761,,,,,
112321,久喜市,高等学校・特別支援学校など,県立久喜北陽高等学校,,,埼玉県久喜市久喜本837-1,36.07410639,139.666433,0480-21-3334,,,,,
112321,久喜市,高等学校・特別支援学校など,県立栗橋北彩高等学校,,,埼玉県久喜市伊坂1,36.12900611,139.6908317,0480-52-5120,,,,,
112321,久喜市,高等学校・特別支援学校など,県立鷲宮高等学校,,,埼玉県久喜市中妻1020,36.08704917,139.6500506,0480-58-1200,,,,,
112321,久喜市,高等学校・特別支援学校など,県立久喜特別支援学校,,,埼玉県久喜市上清久1100,36.07336144,139.6514606,0480-23-0081,,,,,
112321,久喜市,高等学校・特別支援学校など,（一社）南埼玉郡市医師会久喜看護専門学校,,,埼玉県久喜市本町5-10-12,36.06744436,139.6681488,0480-23-3131,,,,,
112321,久喜市,公民館・コミュニティセンターなど,中央公民館,,,埼玉県久喜市久喜中央4-7-7,36.06581658,139.6760175,0480-21-1550,,,,,
112321,久喜市,公民館・コミュニティセンターなど,東公民館,,,埼玉県久喜市久喜東1-27-20,36.05706553,139.6853502,0480-21-8030,,,,,
112321,久喜市,公民館・コミュニティセンターなど,青葉公民館,,,埼玉県久喜市青葉1-2-1,36.06692153,139.6991764,0480-21-8030,,,,,
112321,久喜市,公民館・コミュニティセンターなど,清久コミュニティセンター・西公民館,,,埼玉県久喜市上清久1489-2,36.07453764,139.639743,0480-25-5321,,,,,
112321,久喜市,公民館・コミュニティセンターなど,農村センター（南公民館）,,,埼玉県久喜市北青柳51-2,36.05204711,139.6695986,0480-21-1550,,,,,
112321,久喜市,公民館・コミュニティセンターなど,森下公民館,,,埼玉県久喜市菖蒲町下栢間5495-2,36.04647875,139.5770415,0480-85-7811,,,,,
112321,久喜市,公民館・コミュニティセンターなど,栗橋公民館,,,埼玉県久喜市栗橋中央2-7-1,36.13531781,139.7044034,0480-52-0061,,,,,
112321,久喜市,公民館・コミュニティセンターなど,鷲宮公民館,,,埼玉県久喜市鷲宮6-1-4,36.09818114,139.6716338,0480-58-8144,,,,,
112321,久喜市,公民館・コミュニティセンターなど,しょうぶ会館,,,埼玉県久喜市菖蒲町菖蒲1077-1,36.06659119,139.6001948,0480-85-0370,,,,,
112321,久喜市,公民館・コミュニティセンターなど,栗橋いきいき活動センターしずか館,,,埼玉県久喜市栗橋中央1-11-1,36.13311578,139.7000679,0480-52-0175,,,,,
112321,久喜市,公民館・コミュニティセンターなど,久喜総合文化会館,,,埼玉県久喜市下早見140,36.05726467,139.6708978,0480-21-1799,,,,,
112321,久喜市,公民館・コミュニティセンターなど,菖蒲文化会館（アミーゴ）,,,埼玉県久喜市菖蒲町菖蒲85-1,36.05831914,139.6066461,0480-87-1377,,,,,
112321,久喜市,公民館・コミュニティセンターなど,栗橋文化会館（イリス）,,,埼玉県久喜市伊坂1557,36.12575592,139.6967599,0480-52-3221,,,,,
112321,久喜市,公民館・コミュニティセンターなど,菖蒲コミュニティセンター,,,埼玉県久喜市菖蒲町新堀38（菖蒲総合支所内）,36.05607739,139.6047556,0480-85-1111,,,,,
112321,久喜市,公民館・コミュニティセンターなど,栗橋コミュニティセンター（くぷる）,,,埼玉県久喜市中里1048-1,36.10238169,139.7175141,0480-55-1122,,,,,
112321,久喜市,公民館・コミュニティセンターなど,鷲宮東コミュニティセンター（さくら）,,,埼玉県久喜市桜田3-10-2,36.08925853,139.6883659,0480-58-1101,,,,,
112321,久喜市,公民館・コミュニティセンターなど,鷲宮西コミュニティセンター（おおとり）,,,埼玉県久喜市中妻785-2,36.08548797,139.6554828,0480-59-2121,,,,,
112321,久喜市,公民館・コミュニティセンターなど,東町集会所,,,埼玉県久喜市久喜東5-31-6,36.05613778,139.6849775,0480-22-1111,,,,,
112321,久喜市,公民館・コミュニティセンターなど,太田集会所,,,埼玉県久喜市吉羽1-37-14,36.06233569,139.6906174,0480-22-1111,,,,,
112321,久喜市,公民館・コミュニティセンターなど,本町集会所,,,埼玉県久喜市本町2-4-11,36.06317936,139.6737338,0480-22-1111,,,,,
112321,久喜市,公民館・コミュニティセンターなど,栗原記念会館,,,埼玉県久喜市栗原4-9-12,36.06636156,139.7095584,0480-22-1111,,,,,
112321,久喜市,公民館・コミュニティセンターなど,地域交流センター,,,埼玉県久喜市青葉1-2-2,36.06590428,139.6986823,0480-22-1111,,,,,
112321,久喜市,公民館・コミュニティセンターなど,花みずき会館,,,埼玉県久喜市青毛2-11-13,36.07278875,139.7059449,0480-22-1111,,,,,
112321,久喜市,公民館・コミュニティセンターなど,野久喜集会所,,,埼玉県久喜市古久喜687-3,36.07331078,139.6866941,0480-22-9116,,,,,
112321,久喜市,公民館・コミュニティセンターなど,内下集会所,,,埼玉県久喜市鷲宮160-11,36.07776164,139.6798345,0480-58-1228,,,,,
112321,久喜市,スポーツ・レクリエーション・公園,毎日興業アリーナ 久喜　メインアリーナ（第1体育館）,,,埼玉県久喜市江面1616,36.05245119,139.6635171,0480-21-3611,,,,,
112321,久喜市,スポーツ・レクリエーション・公園,毎日興業アリーナ 久喜　サブアリーナ（第2体育館）,,,埼玉県久喜市江面1665-1,36.05346503,139.6619795,0480-21-3611,,,,,
112321,久喜市,スポーツ・レクリエーション・公園,鷲宮体育センター,,,埼玉県久喜市中妻776,36.08584644,139.6560715,0480-59-7770,,,,,
112321,久喜市,スポーツ・レクリエーション・公園,久喜市総合運動公園,,,埼玉県久喜市江面1616,36.05245119,139.6635171,0480-21-3611,,,,,
112321,久喜市,スポーツ・レクリエーション・公園,青葉公園テニスコート,,,埼玉県久喜市青葉3-1-1,36.06827444,139.6992964,0480-21-3611,,,,,
112321,久喜市,スポーツ・レクリエーション・公園,グラーテス青葉公園球場（青葉公園野球場）,,,埼玉県久喜市青葉3-1-1,36.06827444,139.6992964,0480-21-3611,,,,,
112321,久喜市,スポーツ・レクリエーション・公園,グラーテス清久公園球場（清久公園野球場）,,,埼玉県久喜市清久町9,36.06681633,139.6350069,0480-21-3611,,,,,
112321,久喜市,スポーツ・レクリエーション・公園,寺田緑地グラウンド,,,埼玉県久喜市菖蒲町菖蒲5013-42,36.0634305,139.615297,0480-87-2616,,,,,
112321,久喜市,スポーツ・レクリエーション・公園,菖蒲運動公園,,,埼玉県久喜市菖蒲町菖蒲880-1,36.07132789,139.600154,0480-85-0117,,,,,
112321,久喜市,スポーツ・レクリエーション・公園,森下緑地グラウンド,,,埼玉県久喜市菖蒲町下栢間5495-1,36.046537,139.5791111,0480-87-2616,,,,,
112321,久喜市,スポーツ・レクリエーション・公園,あやめ公園,,,埼玉県久喜市菖蒲町新堀1695,36.06507961,139.5935188,0480-87-2616,,,,,
112321,久喜市,スポーツ・レクリエーション・公園,ふれあい広場,,,埼玉県久喜市菖蒲町三箇2834,36.060674,139.6189959,0480-87-2616,,,,,
112321,久喜市,スポーツ・レクリエーション・公園,南栗橋スポーツ広場,,,埼玉県久喜市南栗橋12-6-1,36.10490583,139.7110256,0480-52-5510,,,,,
112321,久喜市,スポーツ・レクリエーション・公園,鷲宮運動広場,,,埼玉県久喜市鷲宮6-3120,36.09756958,139.6703965,0480-59-2228,,,,,
112321,久喜市,スポーツ・レクリエーション・公園,久喜市市民プール（夏季のみ）,,,埼玉県久喜市江面1616,36.05245119,139.6635171,0480-21-3611,,,,,
112321,久喜市,スポーツ・レクリエーション・公園,菖蒲温水プール（アクレ）,,,埼玉県久喜市菖蒲町三箇164-1,36.05675767,139.6119263,0480-87-2616,,,,,
112321,久喜市,スポーツ・レクリエーション・公園,栗橋B&G海洋センター,,,埼玉県久喜市伊坂1551-1,36.12622703,139.6956443,0480-52-5510,,,,,
112321,久喜市,スポーツ・レクリエーション・公園,鷲宮温水プール,,,埼玉県久喜市鷲宮6-4-1,36.09717247,139.6741846,0480-59-2288,,,,,
112321,久喜市,スポーツ・レクリエーション・公園,寺田公園テニスコート,,,埼玉県久喜市菖蒲町菖蒲5013-91,36.0634305,139.615297,0480-87-2616,,,,,
112321,久喜市,スポーツ・レクリエーション・公園,南栗橋近隣公園（テニスコート）,,,埼玉県久喜市南栗橋10-18-2,36.10702803,139.7087073,0480-52-2831,,,,,
112321,久喜市,スポーツ・レクリエーション・公園,沼井公園テニスコート,,,埼玉県久喜市桜田3-13-2,36.08720128,139.6853852,0480-59-2288,,,,,
112321,久喜市,スポーツ・レクリエーション・公園,桜田運動公園テニスコート,,,埼玉県久喜市桜田2-7-1,36.09432578,139.6852641,0480-59-2288,,,,,
112321,久喜市,スポーツ・レクリエーション・公園,緑1丁目テニス場（ソフトテニスのみ）,,,埼玉県久喜市緑1-33,36.12457933,139.6996108,0480-52-5510,,,,,
112321,久喜市,スポーツ・レクリエーション・公園,県営久喜菖蒲公園,,,埼玉県久喜市河原井町70,36.05576792,139.6465962,0480-23-1366,,,,,
112321,久喜市,スポーツ・レクリエーション・公園,県営権現堂公園（1号公園）,,,埼玉県久喜市小右衛門50,36.10968972,139.724549,0480-53-1553,,,,,
112321,久喜市,図書館など,中央図書館,,,埼玉県久喜市吉羽1-40-1,36.06259922,139.6923925,0480-21-0114,,,,,
112321,久喜市,図書館など,菖蒲図書館,,,埼玉県久喜市菖蒲町菖蒲85-1,36.05831914,139.6066461,0480-87-1388,,,,,
112321,久喜市,図書館など,栗橋文化会館図書室,,,埼玉県久喜市伊坂1557,36.12575592,139.6967599,0480-52-2000,,,,,
112321,久喜市,図書館など,鷲宮図書館,,,埼玉県久喜市鷲宮5-33-1,36.09615544,139.6687271,0480-58-1002,,,,,
112321,久喜市,図書館など,郷土資料館,,,埼玉県久喜市鷲宮5-33-1,36.09615544,139.6687271,0480-57-1200,,,,,
112321,久喜市,図書館など,県立久喜図書館,,,埼玉県久喜市下早見85-5,36.05926728,139.6706024,0480-21-2659,,,,,
112321,久喜市,産業（農業や勤労者施設）,農村センター（南公民館）,,,埼玉県久喜市北青柳51-2,36.05204711,139.6695986,0480-22-1111,,,,,
112321,久喜市,産業（農業や勤労者施設）,農業者トレーニングセンター,,,埼玉県久喜市菖蒲町上大崎820-1,36.05461572,139.6065767,0480-85-1111,,,,,
112321,久喜市,産業（農業や勤労者施設）,勤労福祉センター,,,埼玉県久喜市清久町38,36.0665965,139.6372654,0480-22-1111,,,,,
112321,久喜市,産業（農業や勤労者施設）,労働会館（あやめ会館）,,,埼玉県久喜市菖蒲町菖蒲193-1,36.06261281,139.604771,0480-85-1055,,,,,
112321,久喜市,産業（農業や勤労者施設）,しみん農園久喜,,,埼玉県久喜市六万部1344-1,36.06715372,139.6508624,0480-24-5678,,,,,
112321,久喜市,産業（農業や勤労者施設）,しみん農園菖蒲,,,埼玉県久喜市菖蒲町下栢間966-1,36.04063569,139.5833124,0480-85-8266,,,,,
112321,久喜市,産業（農業や勤労者施設）,しみん農園栗橋,,,埼玉県久喜市栗橋483,36.12404067,139.7024317,0480-53-1111,,,,,
112321,久喜市,産業（農業や勤労者施設）,しみん農園鷲宮,,,埼玉県久喜市八甫4-106-1,36.09669303,139.6921206,0480-58-1111,,,,,
112321,久喜市,産業（農業や勤労者施設）,花と香りのふれあいセンター（あおぞら）,,,埼玉県久喜市八甫4-106-1,36.09669303,139.6921206,0480-58-1111,,,,,
112321,久喜市,その他公的機関,東日本鉄道　久喜駅,,,埼玉県久喜市久喜中央2-1-1,139.6776659,36.06561872,−,,,,,
112321,久喜市,その他公的機関,東武鉄道　久喜駅,,,埼玉県久喜市久喜中央2-1-1,139.6776659,36.06561872,0480-21-0007,,,,,
112321,久喜市,その他公的機関,東日本鉄道　栗橋駅,,,埼玉県久喜市栗橋北1-1-1,139.6943142,36.13686242,−,,,,,
112321,久喜市,その他公的機関,東武鉄道　栗橋駅,,,埼玉県久喜市伊坂字土取場1202-2,139.6943142,36.13686242,0480-52-3701,,,,,
112321,久喜市,その他公的機関,東武鉄道　南栗橋駅,,,埼玉県久喜市南栗橋1-20,139.7128759,36.11317131,0480-52-2118,,,,,
112321,久喜市,その他公的機関,東日本鉄道　東鷲宮駅,,,埼玉県久喜市西大輪726,139.6791903,36.08942872,−,,,,,
112321,久喜市,その他公的機関,東武鉄道　鷲宮駅,,,埼玉県久喜市鷲宮中央1-1-17,139.6568588,36.09640683,0480-58-3646,,,,,
112321,久喜市,その他公的機関,久喜郵便局,,,埼玉県久喜市本町3-17-1,36.06457656,139.6694627,0480-21-0001,,,,,
112321,久喜市,その他公的機関,久喜本町郵便局,,,埼玉県久喜市本町1-2-48,36.06689969,139.6759734,0480-22-1216,,,,,
112321,久喜市,その他公的機関,久喜東町郵便局,,,埼玉県久喜市久喜東5-31-8,36.05611117,139.6852055,0480-21-1694,,,,,
112321,久喜市,その他公的機関,久喜青葉団地内郵便局,,,埼玉県久喜市青葉1-1-2-105,36.06645672,139.6988674,0480-22-6125,,,,,
112321,久喜市,その他公的機関,江面郵便局,,,埼玉県久喜市除堀959-1,36.04402719,139.6398637,0480-21-0191,,,,,
112321,久喜市,その他公的機関,菖蒲郵便局,,,埼玉県久喜市菖蒲町菖蒲5013-51,36.06538692,139.6146461,0480-85-0001,,,,,
112321,久喜市,その他公的機関,栗橋郵便局,,,埼玉県久喜市栗橋東2-4-6,36.13326231,139.702868,0480-52-7010,,,,,
112321,久喜市,その他公的機関,南栗橋郵便局,,,埼玉県久喜市南栗橋5-5-11,36.10626375,139.7149969,0480-53-0551,,,,,
112321,久喜市,その他公的機関,鷲宮郵便局,,,埼玉県久喜市鷲宮4-1-6,36.09778186,139.6656688,0480-58-0001,,,,,
112321,久喜市,その他公的機関,鷲宮上内郵便局,,,埼玉県久喜市上内478,36.08427022,139.6667806,0480-58-4651,,,,,
112321,久喜市,その他公的機関,東鷲宮駅前郵便局,,,埼玉県久喜市桜田3-1-6,36.08562858,139.6841143,0480-58-7401,,,,,
112321,久喜市,その他公的機関,JA南彩菖蒲支店,,,埼玉県久喜市菖蒲町菖蒲902-1,36.06962555,139.600406,0480-85-0040,,,,,
112321,久喜市,その他公的機関,JA南彩久喜江面支店,,,埼玉県久喜市北青柳73,36.05224992,139.6693479,0480-21-1101,,,,,
112321,久喜市,その他公的機関,JA南彩太田支店,,,埼玉県久喜市吉羽2-15-18,36.06733794,139.6916023,0480-21-0354,,,,,
112321,久喜市,その他公的機関,JA南彩三箇支店,,,埼玉県久喜市菖蒲町三箇1342-1,36.05135181,139.6238076,0480-85-0049,,,,,
112321,久喜市,その他公的機関,JA南彩菖蒲南支店,,,埼玉県久喜市菖蒲町小林238,36.04438517,139.5837529,0480-85-0431,,,,,
112321,久喜市,その他公的機関,JA南彩寺田支店,,,埼玉県久喜市菖蒲町三箇2249,36.06288972,139.6126015,0480-85-3535,,,,,
112321,久喜市,その他公的機関,JA埼玉みずほ栗橋支店,,,埼玉県久喜市間鎌290,36.120242,139.7010458,0480-52-0507,,,,,
112321,久喜市,その他公的機関,JA埼玉みずほ桜田支店,,,埼玉県久喜市東大輪441,36.08853786,139.6908218,0480-59-0001,,,,,
112321,久喜市,その他公的機関,久喜市商工会,,,埼玉県久喜市久喜中央4-7-20,36.06648025,139.6768115,0480-21-1154,,,,,
112321,久喜市,その他公的機関,久喜市商工会菖蒲支所,,,埼玉県久喜市菖蒲町菖蒲193,36.06274083,139.6051375,0480-85-0311,,,,,
112321,久喜市,その他公的機関,久喜市商工会栗橋支所,,,埼玉県久喜市間鎌256-1,36.12226319,139.6985573,0480-52-1559,,,,,
112321,久喜市,その他公的機関,久喜市商工会鷲宮支所,,,埼玉県久喜市鷲宮4-8-8,36.09730494,139.669666,0480-58-1202,,,,,
112321,久喜市,その他公的機関,久喜市社会福祉協議会,,,埼玉県久喜市青毛753-1（ふれあいセンター久喜内）,36.06908547,139.696614,0480-23-2526,,,,,
112321,久喜市,その他公的機関,久喜市社会福祉協議会菖蒲支所,,,埼玉県久喜市菖蒲町新堀38（菖蒲総合支所内）,36.05607739,139.6047556,0480-85-8131,,,,,
112321,久喜市,その他公的機関,久喜市社会福祉協議会栗橋支所,,,埼玉県久喜市間鎌251-1（栗橋総合支所内）,36.12228547,139.6993405,0480-52-7835,,,,,
112321,久喜市,その他公的機関,久喜市社会福祉協議会鷲宮支所,,,埼玉県久喜市鷲宮6-1-1（鷲宮総合支所内）,36.09706553,139.6709301,0480-58-9131,,,,,
112321,久喜市,その他公的機関,久喜市シルバー人材センター,,,埼玉県久喜市間鎌251-1（栗橋総合支所内）,36.12299261,139.6992888,0480-47-0237,,,,,
